time,roll,pitch,yaw,altitude,battery,load,
1754305127.2110252,0.0,0.0,0.0,0,100.0,2
1754305127.2212405,1.0,2.5,0.3,100,90.0,2
1754305127.23151,2.0,5.0,0.6,200,80.0,2
1754305127.2418983,3.0,7.5,0.8999999999999999,300,70.0,2
1754305127.2522638,4.0,10.0,1.2,400,60.0,2
1754305127.2625477,5.0,12.5,1.5,500,50.0,2
1754305127.2728574,6.0,15.0,1.7999999999999998,600,40.0,2
1754305127.2831593,7.0,17.5,2.1,700,30.0,2
1754305127.293435,8.0,20.0,2.4,800,20.0,2
1754305127.3037283,9.0,22.5,2.6999999999999997,900,10.0,2
1754305127.3140178,10.0,25.0,3.0,1000,0.0,2
1754305127.3242664,11.0,27.5,3.3,1100,-10.0,2
1754305127.3344789,12.0,30.0,3.5999999999999996,1200,-20.0,2
1754305127.3447554,13.0,32.5,3.9,1300,-30.0,2
1754305127.3551755,14.0,35.0,4.2,1400,-40.0,2
1754305127.365503,15.0,37.5,4.5,1500,-50.0,2
1754305127.3760345,16.0,40.0,4.8,1600,-60.0,2
1754305127.3865232,17.0,42.5,5.1,1700,-70.0,2
1754305127.396868,18.0,45.0,5.3999999999999995,1800,-80.0,2
1754305127.407244,19.0,47.5,5.7,1900,-90.0,2
1754305127.417702,20.0,50.0,6.0,2000,-100.0,2
1754305127.4281242,21.0,52.5,6.3,2100,-110.0,2
1754305127.438549,22.0,55.0,6.6,2200,-120.0,2
1754305127.4488797,23.0,57.5,6.8999999999999995,2300,-130.0,2
1754305127.4592583,24.0,60.0,7.199999999999999,2400,-140.0,2
1754305127.4697702,25.0,62.5,7.5,2500,-150.0,2
1754305127.4801545,26.0,65.0,7.8,2600,-160.0,2
1754305127.4905276,27.0,67.5,8.1,2700,-170.0,2
1754305127.5008621,28.0,70.0,8.4,2800,-180.0,2
1754305127.511167,29.0,72.5,8.7,2900,-190.0,2
1754305127.5214808,30.0,75.0,9.0,3000,-200.0,2
1754305127.5317802,31.0,77.5,9.299999999999999,3100,-210.0,2
1754305127.5420864,32.0,80.0,9.6,3200,-220.0,2
1754305127.5523708,33.0,82.5,9.9,3300,-230.0,2
1754305127.5625777,34.0,85.0,10.2,3400,-240.0,2
1754305127.5728848,35.0,87.5,10.5,3500,-250.0,2
1754305127.583126,36.0,90.0,10.799999999999999,3600,-260.0,2
1754305127.5933998,37.0,92.5,11.1,3700,-270.0,2
1754305127.6036236,38.0,95.0,11.4,3800,-280.0,2
1754305127.613814,39.0,97.5,11.7,3900,-290.0,2
1754305127.6240134,40.0,100.0,12.0,4000,-300.0,2
1754305127.6342227,41.0,102.5,12.299999999999999,4100,-310.0,2
1754305127.6445258,42.0,105.0,12.6,4200,-320.0,2
1754305127.6548223,43.0,107.5,12.9,4300,-330.0,2
1754305127.665122,44.0,110.0,13.2,4400,-340.0,2
1754305127.6754303,45.0,112.5,13.5,4500,-350.0,2
1754305127.68584,46.0,115.0,13.799999999999999,4600,-360.0,2
1754305127.696294,47.0,117.5,14.1,4700,-370.0,2
1754305127.706664,48.0,120.0,14.399999999999999,4800,-380.0,2
1754305127.7170196,49.0,122.5,14.7,4900,-390.0,2
1754305127.7274969,50.0,125.0,15.0,5000,-400.0,2
1754305127.7380033,51.0,127.5,15.299999999999999,5100,-410.0,2
1754305127.7484417,52.0,130.0,15.6,5200,-420.0,2
1754305127.758798,53.0,132.5,15.899999999999999,5300,-430.0,2
1754305127.7692323,54.0,135.0,16.2,5400,-440.0,2
1754305127.7796288,55.0,137.5,16.5,5500,-450.0,2
1754305127.789967,56.0,140.0,16.8,5600,-460.0,2
1754305127.8002853,57.0,142.5,17.099999999999998,5700,-470.0,2
1754305127.810629,58.0,145.0,17.4,5800,-480.0,2
1754305127.8208632,59.0,147.5,17.7,5900,-490.0,2
1754305127.8310592,60.0,150.0,18.0,6000,-500.0,2
1754305127.8412926,61.0,152.5,18.3,6100,-510.0,2
1754305127.8516102,62.0,155.0,18.599999999999998,6200,-520.0,2
1754305127.861867,63.0,157.5,18.9,6300,-530.0,2
1754305127.872198,64.0,160.0,19.2,6400,-540.0,2
1754305127.8826864,65.0,162.5,19.5,6500,-550.0,2
1754305127.8930142,66.0,165.0,19.8,6600,-560.0,2
1754305127.9034889,67.0,167.5,20.099999999999998,6700,-570.0,2
1754305127.9138548,68.0,170.0,20.4,6800,-580.0,2
1754305127.924383,69.0,172.5,20.7,6900,-590.0,2
1754305127.9347582,70.0,175.0,21.0,7000,-600.0,2
1754305127.945113,71.0,177.5,21.3,7100,-610.0,2
1754305127.95558,72.0,180.0,21.599999999999998,7200,-620.0,2
1754305127.9659905,73.0,182.5,21.9,7300,-630.0,2
1754305127.9764967,74.0,185.0,22.2,7400,-640.0,2
1754305127.9869602,75.0,187.5,22.5,7500,-650.0,2
1754305127.9974306,76.0,190.0,22.8,7600,-660.0,2
1754305128.0077822,77.0,192.5,23.099999999999998,7700,-670.0,2
1754305128.0180933,78.0,195.0,23.4,7800,-680.0,2
1754305128.0283725,79.0,197.5,23.7,7900,-690.0,2
1754305128.038688,80.0,200.0,24.0,8000,-700.0,2
1754305128.0490015,81.0,202.5,24.3,8100,-710.0,2
1754305128.0593224,82.0,205.0,24.599999999999998,8200,-720.0,2
1754305128.069634,83.0,207.5,24.9,8300,-730.0,2
1754305128.0799384,84.0,210.0,25.2,8400,-740.0,2
1754305128.090126,85.0,212.5,25.5,8500,-750.0,2
1754305128.1016989,86.0,215.0,25.8,8600,-760.0,2
1754305128.114689,87.0,217.5,26.099999999999998,8700,-770.0,2
1754305128.124904,88.0,220.0,26.4,8800,-780.0,2
1754305128.135117,89.0,222.5,26.7,8900,-790.0,2
1754305128.1454773,90.0,225.0,27.0,9000,-800.0,2
1754305128.155848,91.0,227.5,27.3,9100,-810.0,2
1754305128.166156,92.0,230.0,27.599999999999998,9200,-820.0,2
1754305128.1765497,93.0,232.5,27.9,9300,-830.0,2
1754305128.1874313,94.0,235.0,28.2,9400,-840.0,2
1754305128.1976433,95.0,237.5,28.5,9500,-850.0,2
1754305128.2096844,96.0,240.0,28.799999999999997,9600,-860.0,2
1754305128.219881,97.0,242.5,29.099999999999998,9700,-870.0,2
1754305128.23017,98.0,245.0,29.4,9800,-880.0,2
1754305128.2405338,99.0,247.5,29.7,9900,-890.0,2
1754305128.2509294,100.0,250.0,30.0,10000,-900.0,2
1754305128.2613993,101.0,252.5,30.299999999999997,10100,-910.0,2
1754305128.2717903,102.0,255.0,30.599999999999998,10200,-920.0,2
1754305128.282092,103.0,257.5,30.9,10300,-930.0,2
1754305128.2924106,104.0,260.0,31.2,10400,-940.0,2
1754305128.3027046,105.0,262.5,31.5,10500,-950.0,2
1754305128.3129876,106.0,265.0,31.799999999999997,10600,-960.0,2
1754305128.3233268,107.0,267.5,32.1,10700,-970.0,2
1754305128.3336463,108.0,270.0,32.4,10800,-980.0,2
1754305128.3439345,109.0,272.5,32.699999999999996,10900,-990.0,2
1754305128.3541787,110.0,275.0,33.0,11000,-1000.0,2
1754305128.3643754,111.0,277.5,33.3,11100,-1010.0,2
1754305128.3745244,112.0,280.0,33.6,11200,-1020.0,2
1754305128.3847134,113.0,282.5,33.9,11300,-1030.0,2
1754305128.394926,114.0,285.0,34.199999999999996,11400,-1040.0,2
1754305128.4052582,115.0,287.5,34.5,11500,-1050.0,2
1754305128.4156141,116.0,290.0,34.8,11600,-1060.0,2
1754305128.425928,117.0,292.5,35.1,11700,-1070.0,2
1754305128.4362535,118.0,295.0,35.4,11800,-1080.0,2
1754305128.446768,119.0,297.5,35.699999999999996,11900,-1090.0,2
1754305128.4570956,120.0,300.0,36.0,12000,-1100.0,2
1754305128.4674387,121.0,302.5,36.3,12100,-1110.0,2
1754305128.4778085,122.0,305.0,36.6,12200,-1120.0,2
1754305128.4881842,123.0,307.5,36.9,12300,-1130.0,2
1754305128.4988217,124.0,310.0,37.199999999999996,12400,-1140.0,2
1754305128.5091734,125.0,312.5,37.5,12500,-1150.0,2
1754305128.5195122,126.0,315.0,37.8,12600,-1160.0,2
1754305128.5298254,127.0,317.5,38.1,12700,-1170.0,2
1754305128.540101,128.0,320.0,38.4,12800,-1180.0,2
1754305128.5503542,129.0,322.5,38.699999999999996,12900,-1190.0,2
1754305128.5606525,130.0,325.0,39.0,13000,-1200.0,2
1754305128.5708804,131.0,327.5,39.3,13100,-1210.0,2
1754305128.5811048,132.0,330.0,39.6,13200,-1220.0,2
1754305128.591326,133.0,332.5,39.9,13300,-1230.0,2
1754305128.6016412,134.0,335.0,40.199999999999996,13400,-1240.0,2
1754305128.6118135,135.0,337.5,40.5,13500,-1250.0,2
1754305128.6219974,136.0,340.0,40.8,13600,-1260.0,2
1754305128.6322148,137.0,342.5,41.1,13700,-1270.0,2
1754305128.6425383,138.0,345.0,41.4,13800,-1280.0,2
1754305128.652884,139.0,347.5,41.699999999999996,13900,-1290.0,2
1754305128.6632133,140.0,350.0,42.0,14000,-1300.0,2
1754305128.6735482,141.0,352.5,42.3,14100,-1310.0,2
1754305128.68389,142.0,355.0,42.6,14200,-1320.0,2
1754305128.6941915,143.0,357.5,42.9,14300,-1330.0,2
1754305128.7045581,144.0,360.0,43.199999999999996,14400,-1340.0,2
1754305128.7150266,145.0,362.5,43.5,14500,-1350.0,2
1754305128.7254329,146.0,365.0,43.8,14600,-1360.0,2
1754305128.7358983,147.0,367.5,44.1,14700,-1370.0,2
1754305128.7462738,148.0,370.0,44.4,14800,-1380.0,2
1754305128.7567537,149.0,372.5,44.699999999999996,14900,-1390.0,2
1754305128.7672496,150.0,375.0,45.0,15000,-1400.0,2
1754305128.7775786,151.0,377.5,45.3,15100,-1410.0,2
1754305128.7880116,152.0,380.0,45.6,15200,-1420.0,2
1754305128.7984288,153.0,382.5,45.9,15300,-1430.0,2
1754305128.8087642,154.0,385.0,46.199999999999996,15400,-1440.0,2
1754305128.8190694,155.0,387.5,46.5,15500,-1450.0,2
1754305128.8293707,156.0,390.0,46.8,15600,-1460.0,2
1754305128.8396804,157.0,392.5,47.1,15700,-1470.0,2
1754305128.8498716,158.0,395.0,47.4,15800,-1480.0,2
1754305128.8601003,159.0,397.5,47.699999999999996,15900,-1490.0,2
1754305128.8704762,160.0,400.0,48.0,16000,-1500.0,2
1754305128.8807538,161.0,402.5,48.3,16100,-1510.0,2
1754305128.891163,162.0,405.0,48.6,16200,-1520.0,2
1754305128.9016552,163.0,407.5,48.9,16300,-1530.0,2
1754305128.9120276,164.0,410.0,49.199999999999996,16400,-1540.0,2
1754305128.9225123,165.0,412.5,49.5,16500,-1550.0,2
1754305128.9329834,166.0,415.0,49.8,16600,-1560.0,2
1754305128.9433413,167.0,417.5,50.1,16700,-1570.0,2
1754305128.953823,168.0,420.0,50.4,16800,-1580.0,2
1754305128.9641833,169.0,422.5,50.699999999999996,16900,-1590.0,2
1754305128.9746842,170.0,425.0,51.0,17000,-1600.0,2
1754305128.9851243,171.0,427.5,51.3,17100,-1610.0,2
1754305128.9955034,172.0,430.0,51.6,17200,-1620.0,2
1754305129.0059512,173.0,432.5,51.9,17300,-1630.0,2
1754305129.0164645,174.0,435.0,52.199999999999996,17400,-1640.0,2
1754305129.0267801,175.0,437.5,52.5,17500,-1650.0,2
1754305129.0371213,176.0,440.0,52.8,17600,-1660.0,2
1754305129.0474186,177.0,442.5,53.1,17700,-1670.0,2
1754305129.0577989,178.0,445.0,53.4,17800,-1680.0,2
1754305129.0680838,179.0,447.5,53.699999999999996,17900,-1690.0,2
1754305129.0784202,180.0,450.0,54.0,18000,-1700.0,2
1754305129.0886745,181.0,452.5,54.3,18100,-1710.0,2
1754305129.0989087,182.0,455.0,54.6,18200,-1720.0,2
1754305129.1091316,183.0,457.5,54.9,18300,-1730.0,2
1754305129.1193514,184.0,460.0,55.199999999999996,18400,-1740.0,2
1754305129.129558,185.0,462.5,55.5,18500,-1750.0,2
1754305129.1397607,186.0,465.0,55.8,18600,-1760.0,2
1754305129.149933,187.0,467.5,56.1,18700,-1770.0,2
1754305129.1601186,188.0,470.0,56.4,18800,-1780.0,2
1754305129.1703684,189.0,472.5,56.699999999999996,18900,-1790.0,2
1754305129.180705,190.0,475.0,57.0,19000,-1800.0,2
1754305129.1910062,191.0,477.5,57.3,19100,-1810.0,2
1754305129.2012997,192.0,480.0,57.599999999999994,19200,-1820.0,2
1754305129.2115664,193.0,482.5,57.9,19300,-1830.0,2
1754305129.2217574,194.0,485.0,58.199999999999996,19400,-1840.0,2
1754305129.2319148,195.0,487.5,58.5,19500,-1850.0,2
1754305129.2420933,196.0,490.0,58.8,19600,-1860.0,2
1754305129.2523818,197.0,492.5,59.099999999999994,19700,-1870.0,2
1754305129.2627196,198.0,495.0,59.4,19800,-1880.0,2
1754305129.2730162,199.0,497.5,59.699999999999996,19900,-1890.0,2
1754305129.283317,200.0,500.0,60.0,20000,-1900.0,2
1754305129.2936018,201.0,502.5,60.3,20100,-1910.0,2
1754305129.3038807,202.0,505.0,60.599999999999994,20200,-1920.0,2
1754305129.314194,203.0,507.5,60.9,20300,-1930.0,2
1754305129.3245027,204.0,510.0,61.199999999999996,20400,-1940.0,2
1754305129.3347065,205.0,512.5,61.5,20500,-1950.0,2
1754305129.3449078,206.0,515.0,61.8,20600,-1960.0,2
1754305129.3551064,207.0,517.5,62.099999999999994,20700,-1970.0,2
1754305129.3653002,208.0,520.0,62.4,20800,-1980.0,2
1754305129.3755062,209.0,522.5,62.699999999999996,20900,-1990.0,2
1754305129.385685,210.0,525.0,63.0,21000,-2000.0,2
1754305129.395881,211.0,527.5,63.3,21100,-2010.0,2
1754305129.4061232,212.0,530.0,63.599999999999994,21200,-2020.0,2
1754305129.4163008,213.0,532.5,63.9,21300,-2030.0,2
1754305129.4265554,214.0,535.0,64.2,21400,-2040.0,2
1754305129.43677,215.0,537.5,64.5,21500,-2050.0,2
1754305129.4470415,216.0,540.0,64.8,21600,-2060.0,2
1754305129.4573243,217.0,542.5,65.1,21700,-2070.0,2
1754305129.4675336,218.0,545.0,65.39999999999999,21800,-2080.0,2
1754305129.4777322,219.0,547.5,65.7,21900,-2090.0,2
1754305129.4879336,220.0,550.0,66.0,22000,-2100.0,2
1754305129.4981356,221.0,552.5,66.3,22100,-2110.0,2
1754305129.5082688,222.0,555.0,66.6,22200,-2120.0,2
1754305129.5184233,223.0,557.5,66.89999999999999,22300,-2130.0,2
1754305129.5286245,224.0,560.0,67.2,22400,-2140.0,2
1754305129.5388265,225.0,562.5,67.5,22500,-2150.0,2
1754305129.5490704,226.0,565.0,67.8,22600,-2160.0,2
1754305129.5593889,227.0,567.5,68.1,22700,-2170.0,2
1754305129.569623,228.0,570.0,68.39999999999999,22800,-2180.0,2
1754305129.5798159,229.0,572.5,68.7,22900,-2190.0,2
1754305129.5900316,230.0,575.0,69.0,23000,-2200.0,2
1754305129.6002219,231.0,577.5,69.3,23100,-2210.0,2
1754305129.6104016,232.0,580.0,69.6,23200,-2220.0,2
1754305129.6205885,233.0,582.5,69.89999999999999,23300,-2230.0,2
1754305129.6308336,234.0,585.0,70.2,23400,-2240.0,2
1754305129.6410604,235.0,587.5,70.5,23500,-2250.0,2
1754305129.6512632,236.0,590.0,70.8,23600,-2260.0,2
1754305129.6614547,237.0,592.5,71.1,23700,-2270.0,2
1754305129.671687,238.0,595.0,71.39999999999999,23800,-2280.0,2
1754305129.6819253,239.0,597.5,71.7,23900,-2290.0,2
1754305129.6923506,240.0,600.0,72.0,24000,-2300.0,2
1754305129.7026277,241.0,602.5,72.3,24100,-2310.0,2
1754305129.7128537,242.0,605.0,72.6,24200,-2320.0,2
1754305129.723069,243.0,607.5,72.89999999999999,24300,-2330.0,2
1754305129.733262,244.0,610.0,73.2,24400,-2340.0,2
1754305129.7435753,245.0,612.5,73.5,24500,-2350.0,2
1754305129.7538402,246.0,615.0,73.8,24600,-2360.0,2
1754305129.7641127,247.0,617.5,74.1,24700,-2370.0,2
1754305129.7743294,248.0,620.0,74.39999999999999,24800,-2380.0,2
1754305129.7845206,249.0,622.5,74.7,24900,-2390.0,2
1754305129.7947018,250.0,625.0,75.0,25000,-2400.0,2
1754305129.8049145,251.0,627.5,75.3,25100,-2410.0,2
1754305129.815173,252.0,630.0,75.6,25200,-2420.0,2
1754305129.8255756,253.0,632.5,75.89999999999999,25300,-2430.0,2
1754305129.8357859,254.0,635.0,76.2,25400,-2440.0,2
1754305129.8460848,255.0,637.5,76.5,25500,-2450.0,2
1754305129.8562503,256.0,640.0,76.8,25600,-2460.0,2
1754305129.8664393,257.0,642.5,77.1,25700,-2470.0,2
1754305129.8767002,258.0,645.0,77.39999999999999,25800,-2480.0,2
1754305129.886915,259.0,647.5,77.7,25900,-2490.0,2
1754305129.897112,260.0,650.0,78.0,26000,-2500.0,2
1754305129.907304,261.0,652.5,78.3,26100,-2510.0,2
1754305129.9174614,262.0,655.0,78.6,26200,-2520.0,2
1754305129.9277003,263.0,657.5,78.89999999999999,26300,-2530.0,2
1754305129.9378932,264.0,660.0,79.2,26400,-2540.0,2
1754305129.948184,265.0,662.5,79.5,26500,-2550.0,2
1754305129.9583561,266.0,665.0,79.8,26600,-2560.0,2
1754305129.968543,267.0,667.5,80.1,26700,-2570.0,2
1754305129.9787922,268.0,670.0,80.39999999999999,26800,-2580.0,2
1754305129.989022,269.0,672.5,80.7,26900,-2590.0,2
1754305129.9992766,270.0,675.0,81.0,27000,-2600.0,2
1754305130.0095737,271.0,677.5,81.3,27100,-2610.0,2
1754305130.0197837,272.0,680.0,81.6,27200,-2620.0,2
1754305130.0299907,273.0,682.5,81.89999999999999,27300,-2630.0,2
1754305130.0402908,274.0,685.0,82.2,27400,-2640.0,2
1754305130.0505018,275.0,687.5,82.5,27500,-2650.0,2
1754305130.0607607,276.0,690.0,82.8,27600,-2660.0,2
1754305130.0710618,277.0,692.5,83.1,27700,-2670.0,2
1754305130.0814254,278.0,695.0,83.39999999999999,27800,-2680.0,2
1754305130.092017,279.0,697.5,83.7,27900,-2690.0,2
1754305130.1023617,280.0,700.0,84.0,28000,-2700.0,2
1754305130.1127148,281.0,702.5,84.3,28100,-2710.0,2
1754305130.1231282,282.0,705.0,84.6,28200,-2720.0,2
1754305130.13344,283.0,707.5,84.89999999999999,28300,-2730.0,2
1754305130.1437645,284.0,710.0,85.2,28400,-2740.0,2
1754305130.153983,285.0,712.5,85.5,28500,-2750.0,2
1754305130.1642647,286.0,715.0,85.8,28600,-2760.0,2
1754305130.1747437,287.0,717.5,86.1,28700,-2770.0,2
1754305130.1850214,288.0,720.0,86.39999999999999,28800,-2780.0,2
1754305130.195254,289.0,722.5,86.7,28900,-2790.0,2
1754305130.2054513,290.0,725.0,87.0,29000,-2800.0,2
1754305130.2156923,291.0,727.5,87.3,29100,-2810.0,2
1754305130.2260034,292.0,730.0,87.6,29200,-2820.0,2
1754305130.236243,293.0,732.5,87.89999999999999,29300,-2830.0,2
1754305130.246484,294.0,735.0,88.2,29400,-2840.0,2
1754305130.2567294,295.0,737.5,88.5,29500,-2850.0,2
1754305130.2669034,296.0,740.0,88.8,29600,-2860.0,2
1754305130.2771676,297.0,742.5,89.1,29700,-2870.0,2
1754305130.2874148,298.0,745.0,89.39999999999999,29800,-2880.0,2
1754305130.2977357,299.0,747.5,89.7,29900,-2890.0,2
1754305130.3081117,300.0,750.0,90.0,30000,-2900.0,2
1754305130.3184376,301.0,752.5,90.3,30100,-2910.0,2
1754305130.3287063,302.0,755.0,90.6,30200,-2920.0,2
1754305130.3388858,303.0,757.5,90.89999999999999,30300,-2930.0,2
1754305130.349132,304.0,760.0,91.2,30400,-2940.0,2
1754305130.359404,305.0,762.5,91.5,30500,-2950.0,2
1754305130.369729,306.0,765.0,91.8,30600,-2960.0,2
1754305130.3800492,307.0,767.5,92.1,30700,-2970.0,2
1754305130.390502,308.0,770.0,92.39999999999999,30800,-2980.0,2
1754305130.4010186,309.0,772.5,92.7,30900,-2990.0,2
1754305130.411456,310.0,775.0,93.0,31000,-3000.0,2
1754305130.421967,311.0,777.5,93.3,31100,-3010.0,2
1754305130.4324741,312.0,780.0,93.6,31200,-3020.0,2
1754305130.4427962,313.0,782.5,93.89999999999999,31300,-3030.0,2
1754305130.4532514,314.0,785.0,94.2,31400,-3040.0,2
1754305130.4635684,315.0,787.5,94.5,31500,-3050.0,2
1754305130.4740386,316.0,790.0,94.8,31600,-3060.0,2
1754305130.484557,317.0,792.5,95.1,31700,-3070.0,2
1754305130.4950185,318.0,795.0,95.39999999999999,31800,-3080.0,2
1754305130.5054626,319.0,797.5,95.7,31900,-3090.0,2
1754305130.5158868,320.0,800.0,96.0,32000,-3100.0,2
1754305130.5262518,321.0,802.5,96.3,32100,-3110.0,2
1754305130.536614,322.0,805.0,96.6,32200,-3120.0,2
1754305130.5469341,323.0,807.5,96.89999999999999,32300,-3130.0,2
1754305130.5573704,324.0,810.0,97.2,32400,-3140.0,2
1754305130.5677266,325.0,812.5,97.5,32500,-3150.0,2
1754305130.578058,326.0,815.0,97.8,32600,-3160.0,2
1754305130.5885081,327.0,817.5,98.1,32700,-3170.0,2
1754305130.5989645,328.0,820.0,98.39999999999999,32800,-3180.0,2
1754305130.6093268,329.0,822.5,98.7,32900,-3190.0,2
1754305130.6197448,330.0,825.0,99.0,33000,-3200.0,2
1754305130.630095,331.0,827.5,99.3,33100,-3210.0,2
1754305130.6406324,332.0,830.0,99.6,33200,-3220.0,2
1754305130.6511407,333.0,832.5,99.89999999999999,33300,-3230.0,2
1754305130.661534,334.0,835.0,100.2,33400,-3240.0,2
1754305130.672062,335.0,837.5,100.5,33500,-3250.0,2
1754305130.682419,336.0,840.0,100.8,33600,-3260.0,2
1754305130.6928363,337.0,842.5,101.1,33700,-3270.0,2
1754305130.7033198,338.0,845.0,101.39999999999999,33800,-3280.0,2
1754305130.7138033,339.0,847.5,101.7,33900,-3290.0,2
1754305130.7242904,340.0,850.0,102.0,34000,-3300.0,2
1754305130.7348144,341.0,852.5,102.3,34100,-3310.0,2
1754305130.7452626,342.0,855.0,102.6,34200,-3320.0,2
1754305130.7557702,343.0,857.5,102.89999999999999,34300,-3330.0,2
1754305130.7662802,344.0,860.0,103.2,34400,-3340.0,2
1754305130.7766545,345.0,862.5,103.5,34500,-3350.0,2
1754305130.7870057,346.0,865.0,103.8,34600,-3360.0,2
1754305130.7973294,347.0,867.5,104.1,34700,-3370.0,2
1754305130.8077614,348.0,870.0,104.39999999999999,34800,-3380.0,2
1754305130.8181832,349.0,872.5,104.7,34900,-3390.0,2
1754305130.8284974,350.0,875.0,105.0,35000,-3400.0,2
1754305130.8387852,351.0,877.5,105.3,35100,-3410.0,2
1754305130.848989,352.0,880.0,105.6,35200,-3420.0,2
1754305130.85933,353.0,882.5,105.89999999999999,35300,-3430.0,2
1754305130.8696024,354.0,885.0,106.2,35400,-3440.0,2
1754305130.8798857,355.0,887.5,106.5,35500,-3450.0,2
1754305130.8902066,356.0,890.0,106.8,35600,-3460.0,2
1754305130.900521,357.0,892.5,107.1,35700,-3470.0,2
1754305130.910858,358.0,895.0,107.39999999999999,35800,-3480.0,2
1754305130.9212315,359.0,897.5,107.7,35900,-3490.0,2
1754305130.9316044,360.0,900.0,108.0,36000,-3500.0,2
1754305130.9420428,361.0,902.5,108.3,36100,-3510.0,2
1754305130.9525347,362.0,905.0,108.6,36200,-3520.0,2
1754305130.9629827,363.0,907.5,108.89999999999999,36300,-3530.0,2
1754305130.9734817,364.0,910.0,109.2,36400,-3540.0,2
1754305130.9840097,365.0,912.5,109.5,36500,-3550.0,2
1754305130.9945118,366.0,915.0,109.8,36600,-3560.0,2
1754305131.005002,367.0,917.5,110.1,36700,-3570.0,2
1754305131.0154858,368.0,920.0,110.39999999999999,36800,-3580.0,2
1754305131.0260062,369.0,922.5,110.7,36900,-3590.0,2
1754305131.036318,370.0,925.0,111.0,37000,-3600.0,2
1754305131.0466552,371.0,927.5,111.3,37100,-3610.0,2
1754305131.0570028,372.0,930.0,111.6,37200,-3620.0,2
1754305131.067348,373.0,932.5,111.89999999999999,37300,-3630.0,2
1754305131.0776975,374.0,935.0,112.2,37400,-3640.0,2
1754305131.0880873,375.0,937.5,112.5,37500,-3650.0,2
1754305131.0983322,376.0,940.0,112.8,37600,-3660.0,2
1754305131.108645,377.0,942.5,113.1,37700,-3670.0,2
1754305131.11892,378.0,945.0,113.39999999999999,37800,-3680.0,2
1754305131.1291387,379.0,947.5,113.7,37900,-3690.0,2
1754305131.1393964,380.0,950.0,114.0,38000,-3700.0,2
1754305131.1496427,381.0,952.5,114.3,38100,-3710.0,2
1754305131.1597812,382.0,955.0,114.6,38200,-3720.0,2
1754305131.1700227,383.0,957.5,114.89999999999999,38300,-3730.0,2
1754305131.1804934,384.0,960.0,115.19999999999999,38400,-3740.0,2
1754305131.1908908,385.0,962.5,115.5,38500,-3750.0,2
1754305131.2013338,386.0,965.0,115.8,38600,-3760.0,2
1754305131.2116776,387.0,967.5,116.1,38700,-3770.0,2
1754305131.222127,388.0,970.0,116.39999999999999,38800,-3780.0,2
1754305131.232572,389.0,972.5,116.69999999999999,38900,-3790.0,2
1754305131.2430727,390.0,975.0,117.0,39000,-3800.0,2
1754305131.253556,391.0,977.5,117.3,39100,-3810.0,2
1754305131.263927,392.0,980.0,117.6,39200,-3820.0,2
1754305131.2742622,393.0,982.5,117.89999999999999,39300,-3830.0,2
1754305131.2846336,394.0,985.0,118.19999999999999,39400,-3840.0,2
1754305131.2948956,395.0,987.5,118.5,39500,-3850.0,2
1754305131.3052905,396.0,990.0,118.8,39600,-3860.0,2
1754305131.3157353,397.0,992.5,119.1,39700,-3870.0,2
1754305131.3260682,398.0,995.0,119.39999999999999,39800,-3880.0,2
1754305131.3363793,399.0,997.5,119.69999999999999,39900,-3890.0,2
1754305131.3466852,400.0,1000.0,120.0,40000,-3900.0,2
1754305131.3569381,401.0,1002.5,120.3,40100,-3910.0,2
1754305131.3671722,402.0,1005.0,120.6,40200,-3920.0,2
1754305131.3773699,403.0,1007.5,120.89999999999999,40300,-3930.0,2
1754305131.3876934,404.0,1010.0,121.19999999999999,40400,-3940.0,2
1754305131.3979626,405.0,1012.5,121.5,40500,-3950.0,2
1754305131.4082906,406.0,1015.0,121.8,40600,-3960.0,2
1754305131.418779,407.0,1017.5,122.1,40700,-3970.0,2
1754305131.4291277,408.0,1020.0,122.39999999999999,40800,-3980.0,2
1754305131.4396453,409.0,1022.5,122.69999999999999,40900,-3990.0,2
1754305131.449992,410.0,1025.0,123.0,41000,-4000.0,2
1754305131.4603555,411.0,1027.5,123.3,41100,-4010.0,2
1754305131.470826,412.0,1030.0,123.6,41200,-4020.0,2
1754305131.4812818,413.0,1032.5,123.89999999999999,41300,-4030.0,2
1754305131.491793,414.0,1035.0,124.19999999999999,41400,-4040.0,2
1754305131.5021374,415.0,1037.5,124.5,41500,-4050.0,2
1754305131.5126288,416.0,1040.0,124.8,41600,-4060.0,2
1754305131.5230305,417.0,1042.5,125.1,41700,-4070.0,2
1754305131.5334308,418.0,1045.0,125.39999999999999,41800,-4080.0,2
1754305131.5438976,419.0,1047.5,125.69999999999999,41900,-4090.0,2
1754305131.5542321,420.0,1050.0,126.0,42000,-4100.0,2
1754305131.5645163,421.0,1052.5,126.3,42100,-4110.0,2
1754305131.5748796,422.0,1055.0,126.6,42200,-4120.0,2
1754305131.5851893,423.0,1057.5,126.89999999999999,42300,-4130.0,2
1754305131.5954964,424.0,1060.0,127.19999999999999,42400,-4140.0,2
1754305131.6057765,425.0,1062.5,127.5,42500,-4150.0,2
1754305131.616043,426.0,1065.0,127.8,42600,-4160.0,2
1754305131.6263344,427.0,1067.5,128.1,42700,-4170.0,2
1754305131.6367154,428.0,1070.0,128.4,42800,-4180.0,2
1754305131.6470203,429.0,1072.5,128.7,42900,-4190.0,2
1754305131.6573658,430.0,1075.0,129.0,43000,-4200.0,2
1754305131.6678405,431.0,1077.5,129.29999999999998,43100,-4210.0,2
1754305131.6783009,432.0,1080.0,129.6,43200,-4220.0,2
1754305131.6887608,433.0,1082.5,129.9,43300,-4230.0,2
1754305131.6991196,434.0,1085.0,130.2,43400,-4240.0,2
1754305131.7094698,435.0,1087.5,130.5,43500,-4250.0,2
1754305131.7197537,436.0,1090.0,130.79999999999998,43600,-4260.0,2
1754305131.7300835,437.0,1092.5,131.1,43700,-4270.0,2
1754305131.7405748,438.0,1095.0,131.4,43800,-4280.0,2
1754305131.7510698,439.0,1097.5,131.7,43900,-4290.0,2
1754305131.7615476,440.0,1100.0,132.0,44000,-4300.0,2
1754305131.771893,441.0,1102.5,132.29999999999998,44100,-4310.0,2
1754305131.7822123,442.0,1105.0,132.6,44200,-4320.0,2
1754305131.792565,443.0,1107.5,132.9,44300,-4330.0,2
1754305131.8028657,444.0,1110.0,133.2,44400,-4340.0,2
1754305131.813334,445.0,1112.5,133.5,44500,-4350.0,2
1754305131.8238099,446.0,1115.0,133.79999999999998,44600,-4360.0,2
1754305131.8342779,447.0,1117.5,134.1,44700,-4370.0,2
1754305131.8445747,448.0,1120.0,134.4,44800,-4380.0,2
1754305131.8548317,449.0,1122.5,134.7,44900,-4390.0,2
1754305131.865011,450.0,1125.0,135.0,45000,-4400.0,2
1754305131.875255,451.0,1127.5,135.29999999999998,45100,-4410.0,2
1754305131.8855984,452.0,1130.0,135.6,45200,-4420.0,2
1754305131.8958914,453.0,1132.5,135.9,45300,-4430.0,2
1754305131.906258,454.0,1135.0,136.2,45400,-4440.0,2
1754305131.9166346,455.0,1137.5,136.5,45500,-4450.0,2
1754305131.9269762,456.0,1140.0,136.79999999999998,45600,-4460.0,2
1754305131.937461,457.0,1142.5,137.1,45700,-4470.0,2
1754305131.947885,458.0,1145.0,137.4,45800,-4480.0,2
1754305131.9582634,459.0,1147.5,137.7,45900,-4490.0,2
1754305131.9686506,460.0,1150.0,138.0,46000,-4500.0,2
1754305131.97891,461.0,1152.5,138.29999999999998,46100,-4510.0,2
1754305131.9892385,462.0,1155.0,138.6,46200,-4520.0,2
1754305131.9994447,463.0,1157.5,138.9,46300,-4530.0,2
1754305132.0097115,464.0,1160.0,139.2,46400,-4540.0,2
1754305132.0201154,465.0,1162.5,139.5,46500,-4550.0,2
1754305132.030614,466.0,1165.0,139.79999999999998,46600,-4560.0,2
1754305132.0410378,467.0,1167.5,140.1,46700,-4570.0,2
1754305132.051369,468.0,1170.0,140.4,46800,-4580.0,2
1754305132.0617065,469.0,1172.5,140.7,46900,-4590.0,2
1754305132.0720322,470.0,1175.0,141.0,47000,-4600.0,2
1754305132.0823593,471.0,1177.5,141.29999999999998,47100,-4610.0,2
1754305132.0926952,472.0,1180.0,141.6,47200,-4620.0,2
1754305132.1030018,473.0,1182.5,141.9,47300,-4630.0,2
1754305132.1132708,474.0,1185.0,142.2,47400,-4640.0,2
1754305132.123491,475.0,1187.5,142.5,47500,-4650.0,2
1754305132.1337235,476.0,1190.0,142.79999999999998,47600,-4660.0,2
1754305132.1438737,477.0,1192.5,143.1,47700,-4670.0,2
1754305132.154089,478.0,1195.0,143.4,47800,-4680.0,2
1754305132.1643507,479.0,1197.5,143.7,47900,-4690.0,2
1754305132.174704,480.0,1200.0,144.0,48000,-4700.0,2
1754305132.1849933,481.0,1202.5,144.29999999999998,48100,-4710.0,2
1754305132.1952844,482.0,1205.0,144.6,48200,-4720.0,2
1754305132.205764,483.0,1207.5,144.9,48300,-4730.0,2
1754305132.2160745,484.0,1210.0,145.2,48400,-4740.0,2
1754305132.2263706,485.0,1212.5,145.5,48500,-4750.0,2
1754305132.2367067,486.0,1215.0,145.79999999999998,48600,-4760.0,2
1754305132.247017,487.0,1217.5,146.1,48700,-4770.0,2
1754305132.2574618,488.0,1220.0,146.4,48800,-4780.0,2
1754305132.2679186,489.0,1222.5,146.7,48900,-4790.0,2
1754305132.2782462,490.0,1225.0,147.0,49000,-4800.0,2
1754305132.2887194,491.0,1227.5,147.29999999999998,49100,-4810.0,2
1754305132.299048,492.0,1230.0,147.6,49200,-4820.0,2
1754305132.309372,493.0,1232.5,147.9,49300,-4830.0,2
1754305132.3197381,494.0,1235.0,148.2,49400,-4840.0,2
1754305132.3300946,495.0,1237.5,148.5,49500,-4850.0,2
1754305132.3404412,496.0,1240.0,148.79999999999998,49600,-4860.0,2
1754305132.3507535,497.0,1242.5,149.1,49700,-4870.0,2
1754305132.3610852,498.0,1245.0,149.4,49800,-4880.0,2
1754305132.3713028,499.0,1247.5,149.7,49900,-4890.0,2
1754305132.3815975,500.0,1250.0,150.0,50000.0,-4900.0,0
1754305132.3918858,501.0,1252.5,150.29999999999998,50000.0,-4910.0,0
1754305132.4021401,502.0,1255.0,150.6,50000.0,-4920.0,0
1754305132.412335,503.0,1257.5,150.9,50000.0,-4930.0,0
1754305132.4225423,504.0,1260.0,151.2,50000.0,-4940.0,0
1754305132.432718,505.0,1262.5,151.5,50000.0,-4950.0,0
1754305132.44286,506.0,1265.0,151.79999999999998,50000.0,-4960.0,0
1754305132.4530892,507.0,1267.5,152.1,50000.0,-4970.0,0
1754305132.463409,508.0,1270.0,152.4,50000.0,-4980.0,0
1754305132.4738913,509.0,1272.5,152.7,50000.0,-4990.0,0
1754305132.4843993,510.0,1275.0,153.0,50000.0,-5000.0,0
1754305132.4948897,511.0,1277.5,153.29999999999998,50000.0,-5010.0,0
1754305132.5053952,512.0,1280.0,153.6,50000.0,-5020.0,0
1754305132.515766,513.0,1282.5,153.9,50000.0,-5030.0,0
1754305132.5262516,514.0,1285.0,154.2,50000.0,-5040.0,0
1754305132.536681,515.0,1287.5,154.5,50000.0,-5050.0,0
1754305132.5472107,516.0,1290.0,154.79999999999998,50000.0,-5060.0,0
1754305132.5575626,517.0,1292.5,155.1,50000.0,-5070.0,0
1754305132.5679185,518.0,1295.0,155.4,50000.0,-5080.0,0
1754305132.5782216,519.0,1297.5,155.7,50000.0,-5090.0,0
1754305132.5885348,520.0,1300.0,156.0,50000.0,-5100.0,0
1754305132.5987518,521.0,1302.5,156.29999999999998,50000.0,-5110.0,0
1754305132.608925,522.0,1305.0,156.6,50000.0,-5120.0,0
1754305132.6191146,523.0,1307.5,156.9,50000.0,-5130.0,0
1754305132.6293008,524.0,1310.0,157.2,50000.0,-5140.0,0
1754305132.6396303,525.0,1312.5,157.5,50000.0,-5150.0,0
1754305132.6498735,526.0,1315.0,157.79999999999998,50000.0,-5160.0,0
1754305132.6601768,527.0,1317.5,158.1,50000.0,-5170.0,0
1754305132.6705287,528.0,1320.0,158.4,50000.0,-5180.0,0
1754305132.6809213,529.0,1322.5,158.7,50000.0,-5190.0,0
1754305132.6912646,530.0,1325.0,159.0,50000.0,-5200.0,0
1754305132.7017806,531.0,1327.5,159.29999999999998,50000.0,-5210.0,0
1754305132.7121358,532.0,1330.0,159.6,50000.0,-5220.0,0
1754305132.7225034,533.0,1332.5,159.9,50000.0,-5230.0,0
1754305132.732944,534.0,1335.0,160.2,50000.0,-5240.0,0
1754305132.743311,535.0,1337.5,160.5,50000.0,-5250.0,0
1754305132.753563,536.0,1340.0,160.79999999999998,50000.0,-5260.0,0
1754305132.763785,537.0,1342.5,161.1,50000.0,-5270.0,0
1754305132.7739909,538.0,1345.0,161.4,50000.0,-5280.0,0
1754305132.7841823,539.0,1347.5,161.7,50000.0,-5290.0,0
1754305132.794444,540.0,1350.0,162.0,50000.0,-5300.0,0
1754305132.804774,541.0,1352.5,162.29999999999998,50000.0,-5310.0,0
1754305132.815104,542.0,1355.0,162.6,50000.0,-5320.0,0
1754305132.8254821,543.0,1357.5,162.9,50000.0,-5330.0,0
1754305132.8357642,544.0,1360.0,163.2,50000.0,-5340.0,0
1754305132.8461235,545.0,1362.5,163.5,50000.0,-5350.0,0
1754305132.8564055,546.0,1365.0,163.79999999999998,50000.0,-5360.0,0
1754305132.866626,547.0,1367.5,164.1,50000.0,-5370.0,0
1754305132.876822,548.0,1370.0,164.4,50000.0,-5380.0,0
1754305132.8870392,549.0,1372.5,164.7,50000.0,-5390.0,0
1754305132.8973253,550.0,1375.0,165.0,50000.0,-5400.0,0
1754305132.90772,551.0,1377.5,165.29999999999998,50000.0,-5410.0,0
1754305132.918008,552.0,1380.0,165.6,50000.0,-5420.0,0
1754305132.9283147,553.0,1382.5,165.9,50000.0,-5430.0,0
1754305132.9387999,554.0,1385.0,166.2,50000.0,-5440.0,0
1754305132.9492707,555.0,1387.5,166.5,50000.0,-5450.0,0
1754305132.9597883,556.0,1390.0,166.79999999999998,50000.0,-5460.0,0
1754305132.9701517,557.0,1392.5,167.1,50000.0,-5470.0,0
1754305132.9805512,558.0,1395.0,167.4,50000.0,-5480.0,0
1754305132.9910727,559.0,1397.5,167.7,50000.0,-5490.0,0
1754305133.0015602,560.0,1400.0,168.0,50000.0,-5500.0,0
1754305133.0118728,561.0,1402.5,168.29999999999998,50000.0,-5510.0,0
1754305133.0221348,562.0,1405.0,168.6,50000.0,-5520.0,0
1754305133.0324564,563.0,1407.5,168.9,50000.0,-5530.0,0
1754305133.0428913,564.0,1410.0,169.2,50000.0,-5540.0,0
1754305133.0533214,565.0,1412.5,169.5,50000.0,-5550.0,0
1754305133.063694,566.0,1415.0,169.79999999999998,50000.0,-5560.0,0
1754305133.0740256,567.0,1417.5,170.1,50000.0,-5570.0,0
1754305133.0843716,568.0,1420.0,170.4,50000.0,-5580.0,0
1754305133.094799,569.0,1422.5,170.7,50000.0,-5590.0,0
1754305133.1050954,570.0,1425.0,171.0,50000.0,-5600.0,0
1754305133.115367,571.0,1427.5,171.29999999999998,50000.0,-5610.0,0
1754305133.1256855,572.0,1430.0,171.6,50000.0,-5620.0,0
1754305133.135909,573.0,1432.5,171.9,50000.0,-5630.0,0
1754305133.1461353,574.0,1435.0,172.2,50000.0,-5640.0,0
1754305133.156385,575.0,1437.5,172.5,50000.0,-5650.0,0
1754305133.166873,576.0,1440.0,172.79999999999998,50000.0,-5660.0,0
1754305133.177352,577.0,1442.5,173.1,50000.0,-5670.0,0
1754305133.1877198,578.0,1445.0,173.4,50000.0,-5680.0,0
1754305133.1981964,579.0,1447.5,173.7,50000.0,-5690.0,0
1754305133.2086816,580.0,1450.0,174.0,50000.0,-5700.0,0
1754305133.219048,581.0,1452.5,174.29999999999998,50000.0,-5710.0,0
1754305133.2293966,582.0,1455.0,174.6,50000.0,-5720.0,0
1754305133.23986,583.0,1457.5,174.9,50000.0,-5730.0,0
1754305133.2502441,584.0,1460.0,175.2,50000.0,-5740.0,0
1754305133.2606254,585.0,1462.5,175.5,50000.0,-5750.0,0
1754305133.2710822,586.0,1465.0,175.79999999999998,50000.0,-5760.0,0
1754305133.2814367,587.0,1467.5,176.1,50000.0,-5770.0,0
1754305133.2917888,588.0,1470.0,176.4,50000.0,-5780.0,0
1754305133.302233,589.0,1472.5,176.7,50000.0,-5790.0,0
1754305133.3126101,590.0,1475.0,177.0,50000.0,-5800.0,0
1754305133.3229954,591.0,1477.5,177.29999999999998,50000.0,-5810.0,0
1754305133.3333929,592.0,1480.0,177.6,50000.0,-5820.0,0
1754305133.343735,593.0,1482.5,177.9,50000.0,-5830.0,0
1754305133.3540642,594.0,1485.0,178.2,50000.0,-5840.0,0
1754305133.3643756,595.0,1487.5,178.5,50000.0,-5850.0,0
1754305133.3746643,596.0,1490.0,178.79999999999998,50000.0,-5860.0,0
1754305133.384899,597.0,1492.5,179.1,50000.0,-5870.0,0
1754305133.3951564,598.0,1495.0,179.4,50000.0,-5880.0,0
1754305133.405566,599.0,1497.5,179.7,50000.0,-5890.0,0
1754305133.4158707,600.0,1500.0,180.0,50000.0,-5900.0,0
1754305133.4261897,601.0,1502.5,180.29999999999998,50000.0,-5910.0,0
1754305133.4365776,602.0,1505.0,180.6,50000.0,-5920.0,0
1754305133.4470754,603.0,1507.5,180.9,50000.0,-5930.0,0
1754305133.457428,604.0,1510.0,181.2,50000.0,-5940.0,0
1754305133.4678984,605.0,1512.5,181.5,50000.0,-5950.0,0
1754305133.4783556,606.0,1515.0,181.79999999999998,50000.0,-5960.0,0
1754305133.488844,607.0,1517.5,182.1,50000.0,-5970.0,0
1754305133.499321,608.0,1520.0,182.4,50000.0,-5980.0,0
1754305133.509805,609.0,1522.5,182.7,50000.0,-5990.0,0
1754305133.5202963,610.0,1525.0,183.0,50000.0,-6000.0,0
1754305133.5306997,611.0,1527.5,183.29999999999998,50000.0,-6010.0,0
1754305133.5412064,612.0,1530.0,183.6,50000.0,-6020.0,0
1754305133.5517237,613.0,1532.5,183.9,50000.0,-6030.0,0
1754305133.5622215,614.0,1535.0,184.2,50000.0,-6040.0,0
1754305133.572618,615.0,1537.5,184.5,50000.0,-6050.0,0
1754305133.5829396,616.0,1540.0,184.79999999999998,50000.0,-6060.0,0
1754305133.5933177,617.0,1542.5,185.1,50000.0,-6070.0,0
1754305133.6037676,618.0,1545.0,185.4,50000.0,-6080.0,0
1754305133.6140535,619.0,1547.5,185.7,50000.0,-6090.0,0
1754305133.6243467,620.0,1550.0,186.0,50000.0,-6100.0,0
1754305133.6346426,621.0,1552.5,186.29999999999998,50000.0,-6110.0,0
1754305133.645013,622.0,1555.0,186.6,50000.0,-6120.0,0
1754305133.6554403,623.0,1557.5,186.9,50000.0,-6130.0,0
1754305133.6657755,624.0,1560.0,187.2,50000.0,-6140.0,0
1754305133.6761963,625.0,1562.5,187.5,50000.0,-6150.0,0
1754305133.6867044,626.0,1565.0,187.79999999999998,50000.0,-6160.0,0
1754305133.6972213,627.0,1567.5,188.1,50000.0,-6170.0,0
1754305133.7077253,628.0,1570.0,188.4,50000.0,-6180.0,0
1754305133.7181263,629.0,1572.5,188.7,50000.0,-6190.0,0
1754305133.7284436,630.0,1575.0,189.0,50000.0,-6200.0,0
1754305133.738899,631.0,1577.5,189.29999999999998,50000.0,-6210.0,0
1754305133.7492442,632.0,1580.0,189.6,50000.0,-6220.0,0
1754305133.75958,633.0,1582.5,189.9,50000.0,-6230.0,0
1754305133.7700331,634.0,1585.0,190.2,50000.0,-6240.0,0
1754305133.7804093,635.0,1587.5,190.5,50000.0,-6250.0,0
1754305133.7908356,636.0,1590.0,190.79999999999998,50000.0,-6260.0,0
1754305133.8011343,637.0,1592.5,191.1,50000.0,-6270.0,0
1754305133.8114533,638.0,1595.0,191.4,50000.0,-6280.0,0
1754305133.821925,639.0,1597.5,191.7,50000.0,-6290.0,0
1754305133.8323767,640.0,1600.0,192.0,50000.0,-6300.0,0
1754305133.8428204,641.0,1602.5,192.29999999999998,50000.0,-6310.0,0
1754305133.8531613,642.0,1605.0,192.6,50000.0,-6320.0,0
1754305133.8635316,643.0,1607.5,192.9,50000.0,-6330.0,0
1754305133.8738441,644.0,1610.0,193.2,50000.0,-6340.0,0
1754305133.884117,645.0,1612.5,193.5,50000.0,-6350.0,0
1754305133.8943968,646.0,1615.0,193.79999999999998,50000.0,-6360.0,0
1754305133.9046197,647.0,1617.5,194.1,50000.0,-6370.0,0
1754305133.9148936,648.0,1620.0,194.4,50000.0,-6380.0,0
1754305133.9252834,649.0,1622.5,194.7,50000.0,-6390.0,0
1754305133.9357069,650.0,1625.0,195.0,50000.0,-6400.0,0
1754305133.946033,651.0,1627.5,195.29999999999998,50000.0,-6410.0,0
1754305133.9564557,652.0,1630.0,195.6,50000.0,-6420.0,0
1754305133.9667523,653.0,1632.5,195.9,50000.0,-6430.0,0
1754305133.977098,654.0,1635.0,196.2,50000.0,-6440.0,0
1754305133.9874756,655.0,1637.5,196.5,50000.0,-6450.0,0
1754305133.997986,656.0,1640.0,196.79999999999998,50000.0,-6460.0,0
1754305134.0084622,657.0,1642.5,197.1,50000.0,-6470.0,0
1754305134.018947,658.0,1645.0,197.4,50000.0,-6480.0,0
1754305134.0294385,659.0,1647.5,197.7,50000.0,-6490.0,0
1754305134.0399332,660.0,1650.0,198.0,50000.0,-6500.0,0
1754305134.0502682,661.0,1652.5,198.29999999999998,50000.0,-6510.0,0
1754305134.0606565,662.0,1655.0,198.6,50000.0,-6520.0,0
1754305134.0711024,663.0,1657.5,198.9,50000.0,-6530.0,0
1754305134.0814407,664.0,1660.0,199.2,50000.0,-6540.0,0
1754305134.0917597,665.0,1662.5,199.5,50000.0,-6550.0,0
1754305134.10206,666.0,1665.0,199.79999999999998,50000.0,-6560.0,0
1754305134.1123714,667.0,1667.5,200.1,50000.0,-6570.0,0
1754305134.122683,668.0,1670.0,200.4,50000.0,-6580.0,0
1754305134.1329985,669.0,1672.5,200.7,50000.0,-6590.0,0
1754305134.1433196,670.0,1675.0,201.0,50000.0,-6600.0,0
1754305134.1535773,671.0,1677.5,201.29999999999998,50000.0,-6610.0,0
1754305134.1637824,672.0,1680.0,201.6,50000.0,-6620.0,0
1754305134.1741457,673.0,1682.5,201.9,50000.0,-6630.0,0
1754305134.184485,674.0,1685.0,202.2,50000.0,-6640.0,0
1754305134.1949852,675.0,1687.5,202.5,50000.0,-6650.0,0
1754305134.205489,676.0,1690.0,202.79999999999998,50000.0,-6660.0,0
1754305134.2159173,677.0,1692.5,203.1,50000.0,-6670.0,0
1754305134.2263105,678.0,1695.0,203.4,50000.0,-6680.0,0
1754305134.2366574,679.0,1697.5,203.7,50000.0,-6690.0,0
1754305134.246973,680.0,1700.0,204.0,50000.0,-6700.0,0
1754305134.257418,681.0,1702.5,204.29999999999998,50000.0,-6710.0,0
1754305134.2678978,682.0,1705.0,204.6,50000.0,-6720.0,0
1754305134.278263,683.0,1707.5,204.9,50000.0,-6730.0,0
1754305134.288709,684.0,1710.0,205.2,50000.0,-6740.0,0
1754305134.2990348,685.0,1712.5,205.5,50000.0,-6750.0,0
1754305134.309347,686.0,1715.0,205.79999999999998,50000.0,-6760.0,0
1754305134.3197207,687.0,1717.5,206.1,50000.0,-6770.0,0
1754305134.3301575,688.0,1720.0,206.4,50000.0,-6780.0,0
1754305134.3406923,689.0,1722.5,206.7,50000.0,-6790.0,0
1754305134.351206,690.0,1725.0,207.0,50000.0,-6800.0,0
1754305134.361652,691.0,1727.5,207.29999999999998,50000.0,-6810.0,0
1754305134.3720148,692.0,1730.0,207.6,50000.0,-6820.0,0
1754305134.3823216,693.0,1732.5,207.9,50000.0,-6830.0,0
1754305134.3925927,694.0,1735.0,208.2,50000.0,-6840.0,0
1754305134.4028094,695.0,1737.5,208.5,50000.0,-6850.0,0
1754305134.413057,696.0,1740.0,208.79999999999998,50000.0,-6860.0,0
1754305134.423357,697.0,1742.5,209.1,50000.0,-6870.0,0
1754305134.4337358,698.0,1745.0,209.4,50000.0,-6880.0,0
1754305134.4440985,699.0,1747.5,209.7,50000.0,-6890.0,0
1754305134.4546072,700.0,1750.0,210.0,50000.0,-6900.0,0
1754305134.464937,701.0,1752.5,210.29999999999998,50000.0,-6910.0,0
1754305134.4754112,702.0,1755.0,210.6,50000.0,-6920.0,0
1754305134.4859161,703.0,1757.5,210.9,50000.0,-6930.0,0
1754305134.4964173,704.0,1760.0,211.2,50000.0,-6940.0,0
1754305134.5069287,705.0,1762.5,211.5,50000.0,-6950.0,0
1754305134.5174294,706.0,1765.0,211.79999999999998,50000.0,-6960.0,0
1754305134.5278656,707.0,1767.5,212.1,50000.0,-6970.0,0
1754305134.5382018,708.0,1770.0,212.4,50000.0,-6980.0,0
1754305134.5485268,709.0,1772.5,212.7,50000.0,-6990.0,0
1754305134.5589828,710.0,1775.0,213.0,50000.0,-7000.0,0
1754305134.5693555,711.0,1777.5,213.29999999999998,50000.0,-7010.0,0
1754305134.579666,712.0,1780.0,213.6,50000.0,-7020.0,0
1754305134.5899272,713.0,1782.5,213.9,50000.0,-7030.0,0
1754305134.6002345,714.0,1785.0,214.2,50000.0,-7040.0,0
1754305134.6106005,715.0,1787.5,214.5,50000.0,-7050.0,0
1754305134.6209269,716.0,1790.0,214.79999999999998,50000.0,-7060.0,0
1754305134.6312225,717.0,1792.5,215.1,50000.0,-7070.0,0
1754305134.641469,718.0,1795.0,215.4,50000.0,-7080.0,0
1754305134.6517444,719.0,1797.5,215.7,50000.0,-7090.0,0
1754305134.6619196,720.0,1800.0,216.0,50000.0,-7100.0,0
1754305134.6721923,721.0,1802.5,216.29999999999998,50000.0,-7110.0,0
1754305134.6827,722.0,1805.0,216.6,50000.0,-7120.0,0
1754305134.6931298,723.0,1807.5,216.9,50000.0,-7130.0,0
1754305134.703508,724.0,1810.0,217.2,50000.0,-7140.0,0
1754305134.7140284,725.0,1812.5,217.5,50000.0,-7150.0,0
1754305134.7246046,726.0,1815.0,217.79999999999998,50000.0,-7160.0,0
1754305134.7351036,727.0,1817.5,218.1,50000.0,-7170.0,0
1754305134.7454562,728.0,1820.0,218.4,50000.0,-7180.0,0
1754305134.7558827,729.0,1822.5,218.7,50000.0,-7190.0,0
1754305134.766193,730.0,1825.0,219.0,50000.0,-7200.0,0
1754305134.7764914,731.0,1827.5,219.29999999999998,50000.0,-7210.0,0
1754305134.7869074,732.0,1830.0,219.6,50000.0,-7220.0,0
1754305134.797349,733.0,1832.5,219.9,50000.0,-7230.0,0
1754305134.8077478,734.0,1835.0,220.2,50000.0,-7240.0,0
1754305134.8181055,735.0,1837.5,220.5,50000.0,-7250.0,0
1754305134.8284552,736.0,1840.0,220.79999999999998,50000.0,-7260.0,0
1754305134.838887,737.0,1842.5,221.1,50000.0,-7270.0,0
1754305134.8493466,738.0,1845.0,221.4,50000.0,-7280.0,0
1754305134.8597825,739.0,1847.5,221.7,50000.0,-7290.0,0
1754305134.8701499,740.0,1850.0,222.0,50000.0,-7300.0,0
1754305134.8806274,741.0,1852.5,222.29999999999998,50000.0,-7310.0,0
1754305134.8909204,742.0,1855.0,222.6,50000.0,-7320.0,0
1754305134.9012918,743.0,1857.5,222.9,50000.0,-7330.0,0
1754305134.911516,744.0,1860.0,223.2,50000.0,-7340.0,0
1754305134.9217677,745.0,1862.5,223.5,50000.0,-7350.0,0
1754305134.932084,746.0,1865.0,223.79999999999998,50000.0,-7360.0,0
1754305134.9424012,747.0,1867.5,224.1,50000.0,-7370.0,0
1754305134.9527733,748.0,1870.0,224.4,50000.0,-7380.0,0
1754305134.963136,749.0,1872.5,224.7,50000.0,-7390.0,0
1754305134.9735005,750.0,1875.0,225.0,50000.0,-7400.0,0
1754305134.983996,751.0,1877.5,225.29999999999998,50000.0,-7410.0,0
1754305134.9943697,752.0,1880.0,225.6,50000.0,-7420.0,0
1754305135.0047905,753.0,1882.5,225.9,50000.0,-7430.0,0
1754305135.0152805,754.0,1885.0,226.2,50000.0,-7440.0,0
1754305135.025767,755.0,1887.5,226.5,50000.0,-7450.0,0
1754305135.0362594,756.0,1890.0,226.79999999999998,50000.0,-7460.0,0
1754305135.0466547,757.0,1892.5,227.1,50000.0,-7470.0,0
1754305135.0571306,758.0,1895.0,227.4,50000.0,-7480.0,0
1754305135.0676317,759.0,1897.5,227.7,50000.0,-7490.0,0
1754305135.0780802,760.0,1900.0,228.0,50000.0,-7500.0,0
1754305135.0886264,761.0,1902.5,228.29999999999998,50000.0,-7510.0,0
1754305135.099069,762.0,1905.0,228.6,50000.0,-7520.0,0
1754305135.1093767,763.0,1907.5,228.9,50000.0,-7530.0,0
1754305135.1197324,764.0,1910.0,229.2,50000.0,-7540.0,0
1754305135.130065,765.0,1912.5,229.5,50000.0,-7550.0,0
1754305135.1403759,766.0,1915.0,229.79999999999998,50000.0,-7560.0,0
1754305135.1507294,767.0,1917.5,230.1,50000.0,-7570.0,0
1754305135.1609657,768.0,1920.0,230.39999999999998,50000.0,-7580.0,0
1754305135.1711853,769.0,1922.5,230.7,50000.0,-7590.0,0
1754305135.1814384,770.0,1925.0,231.0,50000.0,-7600.0,0
1754305135.1917682,771.0,1927.5,231.29999999999998,50000.0,-7610.0,0
1754305135.2022684,772.0,1930.0,231.6,50000.0,-7620.0,0
1754305135.2126658,773.0,1932.5,231.89999999999998,50000.0,-7630.0,0
1754305135.2231636,774.0,1935.0,232.2,50000.0,-7640.0,0
1754305135.2336826,775.0,1937.5,232.5,50000.0,-7650.0,0
1754305135.2441847,776.0,1940.0,232.79999999999998,50000.0,-7660.0,0
1754305135.2544968,777.0,1942.5,233.1,50000.0,-7670.0,0
1754305135.2648644,778.0,1945.0,233.39999999999998,50000.0,-7680.0,0
1754305135.2751958,779.0,1947.5,233.7,50000.0,-7690.0,0
1754305135.2855012,780.0,1950.0,234.0,50000.0,-7700.0,0
1754305135.2958112,781.0,1952.5,234.29999999999998,50000.0,-7710.0,0
1754305135.306144,782.0,1955.0,234.6,50000.0,-7720.0,0
1754305135.316497,783.0,1957.5,234.89999999999998,50000.0,-7730.0,0
1754305135.3269958,784.0,1960.0,235.2,50000.0,-7740.0,0
1754305135.337357,785.0,1962.5,235.5,50000.0,-7750.0,0
1754305135.3478172,786.0,1965.0,235.79999999999998,50000.0,-7760.0,0
1754305135.3583152,787.0,1967.5,236.1,50000.0,-7770.0,0
1754305135.368806,788.0,1970.0,236.39999999999998,50000.0,-7780.0,0
1754305135.3792934,789.0,1972.5,236.7,50000.0,-7790.0,0
1754305135.389753,790.0,1975.0,237.0,50000.0,-7800.0,0
1754305135.40007,791.0,1977.5,237.29999999999998,50000.0,-7810.0,0
1754305135.4103618,792.0,1980.0,237.6,50000.0,-7820.0,0
1754305135.4206235,793.0,1982.5,237.89999999999998,50000.0,-7830.0,0
1754305135.4308074,794.0,1985.0,238.2,50000.0,-7840.0,0
1754305135.4410703,795.0,1987.5,238.5,50000.0,-7850.0,0
1754305135.4513652,796.0,1990.0,238.79999999999998,50000.0,-7860.0,0
1754305135.461716,797.0,1992.5,239.1,50000.0,-7870.0,0
1754305135.4721487,798.0,1995.0,239.39999999999998,50000.0,-7880.0,0
1754305135.4825044,799.0,1997.5,239.7,50000.0,-7890.0,0
1754305135.4930108,800.0,2000.0,240.0,50000.0,-7900.0,0
1754305135.5034933,801.0,2002.5,240.29999999999998,50000.0,-7910.0,0
1754305135.5138738,802.0,2005.0,240.6,50000.0,-7920.0,0
1754305135.5242271,803.0,2007.5,240.89999999999998,50000.0,-7930.0,0
1754305135.5346787,804.0,2010.0,241.2,50000.0,-7940.0,0
1754305135.5451627,805.0,2012.5,241.5,50000.0,-7950.0,0
1754305135.5556707,806.0,2015.0,241.79999999999998,50000.0,-7960.0,0
1754305135.5660453,807.0,2017.5,242.1,50000.0,-7970.0,0
1754305135.576429,808.0,2020.0,242.39999999999998,50000.0,-7980.0,0
1754305135.5869198,809.0,2022.5,242.7,50000.0,-7990.0,0
1754305135.597397,810.0,2025.0,243.0,50000.0,-8000.0,0
1754305135.607812,811.0,2027.5,243.29999999999998,50000.0,-8010.0,0
1754305135.618216,812.0,2030.0,243.6,50000.0,-8020.0,0
1754305135.6285775,813.0,2032.5,243.89999999999998,50000.0,-8030.0,0
1754305135.6389935,814.0,2035.0,244.2,50000.0,-8040.0,0
1754305135.649313,815.0,2037.5,244.5,50000.0,-8050.0,0
1754305135.6596427,816.0,2040.0,244.79999999999998,50000.0,-8060.0,0
1754305135.670006,817.0,2042.5,245.1,50000.0,-8070.0,0
1754305135.680206,818.0,2045.0,245.39999999999998,50000.0,-8080.0,0
1754305135.6904988,819.0,2047.5,245.7,50000.0,-8090.0,0
1754305135.7007434,820.0,2050.0,246.0,50000.0,-8100.0,0
1754305135.71121,821.0,2052.5,246.29999999999998,50000.0,-8110.0,0
1754305135.7215362,822.0,2055.0,246.6,50000.0,-8120.0,0
1754305135.7318423,823.0,2057.5,246.89999999999998,50000.0,-8130.0,0
1754305135.74215,824.0,2060.0,247.2,50000.0,-8140.0,0
1754305135.7525067,825.0,2062.5,247.5,50000.0,-8150.0,0
1754305135.762841,826.0,2065.0,247.79999999999998,50000.0,-8160.0,0
1754305135.7731524,827.0,2067.5,248.1,50000.0,-8170.0,0
1754305135.7836149,828.0,2070.0,248.39999999999998,50000.0,-8180.0,0
1754305135.7940142,829.0,2072.5,248.7,50000.0,-8190.0,0
1754305135.8043013,830.0,2075.0,249.0,50000.0,-8200.0,0
1754305135.814648,831.0,2077.5,249.29999999999998,50000.0,-8210.0,0
1754305135.8251152,832.0,2080.0,249.6,50000.0,-8220.0,0
1754305135.8356152,833.0,2082.5,249.89999999999998,50000.0,-8230.0,0
1754305135.8461008,834.0,2085.0,250.2,50000.0,-8240.0,0
1754305135.856447,835.0,2087.5,250.5,50000.0,-8250.0,0
1754305135.8669283,836.0,2090.0,250.79999999999998,50000.0,-8260.0,0
1754305135.8772583,837.0,2092.5,251.1,50000.0,-8270.0,0
1754305135.88776,838.0,2095.0,251.39999999999998,50000.0,-8280.0,0
1754305135.898249,839.0,2097.5,251.7,50000.0,-8290.0,0
1754305135.9085703,840.0,2100.0,252.0,50000.0,-8300.0,0
1754305135.9188519,841.0,2102.5,252.29999999999998,50000.0,-8310.0,0
1754305135.9290926,842.0,2105.0,252.6,50000.0,-8320.0,0
1754305135.9393303,843.0,2107.5,252.89999999999998,50000.0,-8330.0,0
1754305135.9497383,844.0,2110.0,253.2,50000.0,-8340.0,0
1754305135.9600852,845.0,2112.5,253.5,50000.0,-8350.0,0
1754305135.9703872,846.0,2115.0,253.79999999999998,50000.0,-8360.0,0
1754305135.9807048,847.0,2117.5,254.1,50000.0,-8370.0,0
1754305135.9911966,848.0,2120.0,254.39999999999998,50000.0,-8380.0,0
1754305136.0016637,849.0,2122.5,254.7,50000.0,-8390.0,0
1754305136.012145,850.0,2125.0,255.0,50000.0,-8400.0,0
1754305136.022516,851.0,2127.5,255.29999999999998,50000.0,-8410.0,0
1754305136.0330074,852.0,2130.0,255.6,50000.0,-8420.0,0
1754305136.0434947,853.0,2132.5,255.89999999999998,50000.0,-8430.0,0
1754305136.0539608,854.0,2135.0,256.2,50000.0,-8440.0,0
1754305136.0644326,855.0,2137.5,256.5,50000.0,-8450.0,0
1754305136.0747979,856.0,2140.0,256.8,50000.0,-8460.0,0
1754305136.0851777,857.0,2142.5,257.09999999999997,50000.0,-8470.0,0
1754305136.0957036,858.0,2145.0,257.4,50000.0,-8480.0,0
1754305136.1060593,859.0,2147.5,257.7,50000.0,-8490.0,0
1754305136.1164343,860.0,2150.0,258.0,50000.0,-8500.0,0
1754305136.126845,861.0,2152.5,258.3,50000.0,-8510.0,0
1754305136.1372223,862.0,2155.0,258.59999999999997,50000.0,-8520.0,0
1754305136.1475353,863.0,2157.5,258.9,50000.0,-8530.0,0
1754305136.1578045,864.0,2160.0,259.2,50000.0,-8540.0,0
1754305136.1681077,865.0,2162.5,259.5,50000.0,-8550.0,0
1754305136.17836,866.0,2165.0,259.8,50000.0,-8560.0,0
1754305136.1887534,867.0,2167.5,260.09999999999997,50000.0,-8570.0,0
1754305136.1990056,868.0,2170.0,260.4,50000.0,-8580.0,0
1754305136.209271,869.0,2172.5,260.7,50000.0,-8590.0,0
1754305136.2196507,870.0,2175.0,261.0,50000.0,-8600.0,0
1754305136.2299907,871.0,2177.5,261.3,50000.0,-8610.0,0
1754305136.2403815,872.0,2180.0,261.59999999999997,50000.0,-8620.0,0
1754305136.2508793,873.0,2182.5,261.9,50000.0,-8630.0,0
1754305136.2612717,874.0,2185.0,262.2,50000.0,-8640.0,0
1754305136.2716568,875.0,2187.5,262.5,50000.0,-8650.0,0
1754305136.281976,876.0,2190.0,262.8,50000.0,-8660.0,0
1754305136.2923548,877.0,2192.5,263.09999999999997,50000.0,-8670.0,0
1754305136.302691,878.0,2195.0,263.4,50000.0,-8680.0,0
1754305136.3129914,879.0,2197.5,263.7,50000.0,-8690.0,0
1754305136.3234737,880.0,2200.0,264.0,50000.0,-8700.0,0
1754305136.333739,881.0,2202.5,264.3,50000.0,-8710.0,0
1754305136.3440711,882.0,2205.0,264.59999999999997,50000.0,-8720.0,0
1754305136.354389,883.0,2207.5,264.9,50000.0,-8730.0,0
1754305136.3647518,884.0,2210.0,265.2,50000.0,-8740.0,0
1754305136.3752017,885.0,2212.5,265.5,50000.0,-8750.0,0
1754305136.3855584,886.0,2215.0,265.8,50000.0,-8760.0,0
1754305136.3959947,887.0,2217.5,266.09999999999997,50000.0,-8770.0,0
1754305136.4064207,888.0,2220.0,266.4,50000.0,-8780.0,0
1754305136.4167612,889.0,2222.5,266.7,50000.0,-8790.0,0
1754305136.427073,890.0,2225.0,267.0,50000.0,-8800.0,0
1754305136.4373412,891.0,2227.5,267.3,50000.0,-8810.0,0
1754305136.447676,892.0,2230.0,267.59999999999997,50000.0,-8820.0,0
1754305136.4580517,893.0,2232.5,267.9,50000.0,-8830.0,0
1754305136.468447,894.0,2235.0,268.2,50000.0,-8840.0,0
1754305136.4787562,895.0,2237.5,268.5,50000.0,-8850.0,0
1754305136.4892485,896.0,2240.0,268.8,50000.0,-8860.0,0
1754305136.4997735,897.0,2242.5,269.09999999999997,50000.0,-8870.0,0
1754305136.5102174,898.0,2245.0,269.4,50000.0,-8880.0,0
1754305136.5207317,899.0,2247.5,269.7,50000.0,-8890.0,0
1754305136.5311701,900.0,2250.0,270.0,50000.0,-8900.0,0
1754305136.5416877,901.0,2276.869303004899,270.3,50000.0,-8910.0,0
1754305136.5521975,902.0,2329.074817015175,270.59999999999997,50000.0,-8920.0,0
1754305136.562712,903.0,2305.6466361589105,270.9,50000.0,-8930.0,0
1754305136.5731952,904.0,2296.467251145616,271.2,50000.0,-8940.0,0
1754305136.583552,905.0,2221.0126603956646,271.5,50000.0,-8950.0,0
1754305136.594061,906.0,2315.354773325525,271.8,50000.0,-8960.0,0
1754305136.604625,907.0,2282.3372132455206,272.09999999999997,50000.0,-8970.0,0
1754305136.6149607,908.0,2218.60180002655,272.4,50000.0,-8980.0,0
1754305136.625286,909.0,2322.418146550846,272.7,50000.0,-8990.0,0
1754305136.6355999,910.0,2256.038164647549,273.0,50000.0,-9000.0,0
1754305136.6459045,911.0,2348.6151391443077,273.3,50000.0,-9010.0,0
1754305136.656301,912.0,2326.87035877822,273.59999999999997,50000.0,-9020.0,0
1754305136.6666157,913.0,2311.677842064252,273.9,50000.0,-9030.0,0
1754305136.6769028,914.0,2321.185795983897,274.2,50000.0,-9040.0,0
1754305136.6871927,915.0,2273.1934864068503,274.5,50000.0,-9050.0,0
1754305136.6975667,916.0,2303.041389883401,274.8,50000.0,-9060.0,0
1754305136.7078376,917.0,2351.3705269000657,275.09999999999997,50000.0,-9070.0,0
1754305136.71813,918.0,2318.9361549016976,275.4,50000.0,-9080.0,0
1754305136.7285058,919.0,2214.252356157174,275.7,50000.0,-9090.0,0
1754305136.7390335,920.0,2315.337131082071,276.0,50000.0,-9100.0,0
1754305136.7495506,921.0,2222.744434164563,276.3,50000.0,-9110.0,0
1754305136.7601078,922.0,2321.9786086418185,276.59999999999997,50000.0,-9120.0,0
1754305136.7704628,923.0,2354.989638979777,276.9,50000.0,-9130.0,0
1754305136.7807896,924.0,2387.1807413839715,277.2,50000.0,-9140.0,0
1754305136.7911923,925.0,2359.8416652752594,277.5,50000.0,-9150.0,0
1754305136.8015614,926.0,2230.072398239957,277.8,50000.0,-9160.0,0
1754305136.8119063,927.0,2295.6091436377465,278.09999999999997,50000.0,-9170.0,0
1754305136.8222842,928.0,2380.5482554194004,278.4,50000.0,-9180.0,0
1754305136.8326454,929.0,2290.021792915703,278.7,50000.0,-9190.0,0
1754305136.843133,930.0,2277.783379881105,279.0,50000.0,-9200.0,0
1754305136.8536563,931.0,2384.498049578648,279.3,50000.0,-9210.0,0
1754305136.864214,932.0,2293.3086916686807,279.59999999999997,50000.0,-9220.0,0
1754305136.8746197,933.0,2269.653667933025,279.9,50000.0,-9230.0,0
1754305136.88513,934.0,2429.483833917802,280.2,50000.0,-9240.0,0
1754305136.8956656,935.0,2409.849779567301,280.5,50000.0,-9250.0,0
1754305136.9061368,936.0,2342.0422855456336,280.8,50000.0,-9260.0,0
1754305136.9166484,937.0,2305.4580225188556,281.09999999999997,50000.0,-9270.0,0
1754305136.9271016,938.0,2395.36798334178,281.4,50000.0,-9280.0,0
1754305136.9374282,939.0,2401.936947380989,281.7,50000.0,-9290.0,0
1754305136.9476492,940.0,2382.090261236004,282.0,50000.0,-9300.0,0
1754305136.9578667,941.0,2450.06234629551,282.3,50000.0,-9310.0,0
1754305136.9681416,942.0,2257.657033302419,282.59999999999997,50000.0,-9320.0,0
1754305136.978447,943.0,2321.484905210802,282.9,50000.0,-9330.0,0
1754305136.9887314,944.0,2280.4960539437366,283.2,50000.0,-9340.0,0
1754305136.9990344,945.0,2310.408266589005,283.5,50000.0,-9350.0,0
1754305137.0093763,946.0,2455.5072598905576,283.8,50000.0,-9360.0,0
1754305137.0198655,947.0,2443.8506448916587,284.09999999999997,50000.0,-9370.0,0
1754305137.0303702,948.0,2425.0989137592996,284.4,50000.0,-9380.0,0
1754305137.0407467,949.0,2309.725448442757,284.7,50000.0,-9390.0,0
1754305137.0512571,950.0,2371.9682894077523,285.0,50000.0,-9400.0,0
1754305137.061772,951.0,2285.2133035709603,285.3,50000.0,-9410.0,0
1754305137.0721948,952.0,2300.2730174817148,285.59999999999997,50000.0,-9420.0,0
1754305137.082556,953.0,2421.4231617034825,285.9,50000.0,-9430.0,0
1754305137.093013,954.0,2469.4248247934984,286.2,50000.0,-9440.0,0
1754305137.1034923,955.0,2476.842020311803,286.5,50000.0,-9450.0,0
1754305137.1138616,956.0,2358.324547390991,286.8,50000.0,-9460.0,0
1754305137.1241884,957.0,2406.0752915022763,287.09999999999997,50000.0,-9470.0,0
1754305137.1345146,958.0,2452.782761909173,287.4,50000.0,-9480.0,0
1754305137.1448374,959.0,2303.8418640902187,287.7,50000.0,-9490.0,0
1754305137.1551695,960.0,2489.432381655046,288.0,50000.0,-9500.0,0
1754305137.1655014,961.0,2417.159492396659,288.3,50000.0,-9510.0,0
1754305137.1758022,962.0,2500.5928758856835,288.59999999999997,50000.0,-9520.0,0
1754305137.1861107,963.0,2326.2634585423707,288.9,50000.0,-9530.0,0
1754305137.1964126,964.0,2366.53129330169,289.2,50000.0,-9540.0,0
1754305137.2067618,965.0,2460.5253363868173,289.5,50000.0,-9550.0,0
1754305137.2171054,966.0,2320.1693411831798,289.8,50000.0,-9560.0,0
1754305137.2274961,967.0,2408.0259766148265,290.09999999999997,50000.0,-9570.0,0
1754305137.2378476,968.0,2507.628757669241,290.4,50000.0,-9580.0,0
1754305137.248224,969.0,2354.103174597203,290.7,50000.0,-9590.0,0
1754305137.2587664,970.0,2369.3943554142616,291.0,50000.0,-9600.0,0
1754305137.2693036,971.0,2343.9649262981225,291.3,50000.0,-9610.0,0
1754305137.2796733,972.0,2377.180235397644,291.59999999999997,50000.0,-9620.0,0
1754305137.2899773,973.0,2341.3395461257714,291.9,50000.0,-9630.0,0
1754305137.3002691,974.0,2421.530698216231,292.2,50000.0,-9640.0,0
1754305137.3107088,975.0,2402.3760306050517,292.5,50000.0,-9650.0,0
1754305137.3210378,976.0,2398.9614207883606,292.8,50000.0,-9660.0,0
1754305137.3312829,977.0,2521.511246667216,293.09999999999997,50000.0,-9670.0,0
1754305137.341541,978.0,2430.331706885269,293.4,50000.0,-9680.0,0
1754305137.3518443,979.0,2424.3215107542455,293.7,50000.0,-9690.0,0
1754305137.3621602,980.0,2425.6753643591364,294.0,50000.0,-9700.0,0
1754305137.3724988,981.0,2470.6392283655823,294.3,50000.0,-9710.0,0
1754305137.3828113,982.0,2527.2440859152407,294.59999999999997,50000.0,-9720.0,0
1754305137.3930933,983.0,2463.8238521328767,294.9,50000.0,-9730.0,0
1754305137.4033945,984.0,2381.8658545264943,295.2,50000.0,-9740.0,0
1754305137.413699,985.0,2461.0373034185395,295.5,50000.0,-9750.0,0
1754305137.4239886,986.0,2486.321433510404,295.8,50000.0,-9760.0,0
1754305137.434213,987.0,2485.092756724052,296.09999999999997,50000.0,-9770.0,0
1754305137.4443939,988.0,2513.647662225745,296.4,50000.0,-9780.0,0
1754305137.454557,989.0,2496.3444710110707,296.7,50000.0,-9790.0,0
1754305137.4647496,990.0,2523.3356905720584,297.0,50000.0,-9800.0,0
1754305137.4750128,991.0,2415.9930941756215,297.3,50000.0,-9810.0,0
1754305137.4853907,992.0,2519.1383331975885,297.59999999999997,50000.0,-9820.0,0
1754305137.4957786,993.0,2433.7570111113887,297.9,50000.0,-9830.0,0
1754305137.5062559,994.0,2470.222995245591,298.2,50000.0,-9840.0,0
1754305137.5167115,995.0,2414.098863953347,298.5,50000.0,-9850.0,0
1754305137.5271728,996.0,2524.024694404605,298.8,50000.0,-9860.0,0
1754305137.537523,997.0,2501.7197445248635,299.09999999999997,50000.0,-9870.0,0
1754305137.5478544,998.0,2490.303336041223,299.4,50000.0,-9880.0,0
1754305137.5583227,999.0,2565.95126879456,299.7,50000.0,-9890.0,0
